[
    {"name": "Very Dank Hotel", "lat": -34.9265988, "lng": 138.6061529, "Address": "144 asdf Avenue", "description": "Woah, Check out this amazing hotel", "price": 456, "uniqueId": 0, "review": [{"reviewerName": "Dank Doge", "text": "Much wow"}]},
    {"name": "Such Epic hotel", "lat": -34.9231506, "lng": 138.5927633, "Address": "1337 qwerty lane", "description": "A very typical boring hotel like any other", "price": 123, "uniqueId": 1, "review": [{"reviewerName": "Dank Doge", "text": "Very wow"}]},
    {"name": "Much Mint Hotel", "lat": -34.9350430, "lng": 138.6050371, "Address": "420 Great Gravel", "description": "Our hotel is so amazing, buy to find out why!!!", "price": 789, "uniqueId": 2, "review": [{"reviewerName": "Dank Doge", "text": "Such wow"}]},
    {"name": "Super Hot Hotel", "lat": -33.86882, "lng": 151.2092955, "Address": "12345 Meow Motorway", "description": "Featuring FREE Dial up internet!!!", "price": 789, "uniqueId": 3, "review": [{"reviewerName": "Dank Doge", "text": "wow WOW"}]},
    {"name": "Very Dank Hotel", "lat": 40.71277, "lng": -74.005978, "Address": "420 Dank Drive", "description": "An amzing description, unlike any other hotel you've seen before", "price": 420, "uniqueId": 4, "review": [{"reviewerName": "Dank Doge", "text": "i r8 8/8"}]}
]
